[
  {"name": "Zürich", "latitude": 47.3769, "longitude": 8.5417, "difficulty": "easy"},
  {"name": "Bern", "latitude": 46.9480, "longitude": 7.4474, "difficulty": "easy"},
  {"name": "Basel", "latitude": 47.5596, "longitude": 7.5886, "difficulty": "easy"},
  {"name": "Genf", "latitude": 46.2044, "longitude": 6.1432, "difficulty": "easy"},
  {"name": "Lausanne", "latitude": 46.5197, "longitude": 6.6323, "difficulty": "easy"},
  {"name": "Luzern", "latitude": 47.0502, "longitude": 8.3093, "difficulty": "easy"},
  {"name": "St. Gallen", "latitude": 47.4245, "longitude": 9.3767, "difficulty": "medium"},
  {"name": "Lugano", "latitude": 46.0037, "longitude": 8.9511, "difficulty": "medium"},
  {"name": "Winterthur", "latitude": 47.5001, "longitude": 8.7240, "difficulty": "medium"},
  {"name": "Thun", "latitude": 46.7580, "longitude": 7.6280, "difficulty": "medium"},
  {"name": "Zermatt", "latitude": 46.0207, "longitude": 7.7491, "difficulty": "medium"},
  {"name": "Interlaken", "latitude": 46.6863, "longitude": 7.8632, "difficulty": "medium"},
  {"name": "Davos", "latitude": 46.8027, "longitude": 9.8360, "difficulty": "medium"},
  {"name": "Locarno", "latitude": 46.1708, "longitude": 8.7994, "difficulty": "medium"},
  {"name": "Chur", "latitude": 46.8508, "longitude": 9.5320, "difficulty": "medium"},
  {"name": "Matterhorn", "latitude": 45.9763, "longitude": 7.6586, "difficulty": "hard"},
  {"name": "Jungfraujoch", "latitude": 46.5472, "longitude": 7.9855, "difficulty": "hard"},
  {"name": "Grindelwald", "latitude": 46.6244, "longitude": 8.0413, "difficulty": "medium"},
  {"name": "Schaffhausen", "latitude": 47.6959, "longitude": 8.6350, "difficulty": "medium"},
  {"name": "Montreux", "latitude": 46.4312, "longitude": 6.9107, "difficulty": "medium"},
  {"name": "Neuchâtel", "latitude": 46.9900, "longitude": 6.9293, "difficulty": "medium"},
  {"name": "Fribourg", "latitude": 46.8065, "longitude": 7.1620, "difficulty": "medium"},
  {"name": "Sion", "latitude": 46.2330, "longitude": 7.3600, "difficulty": "medium"},
  {"name": "Aarau", "latitude": 47.3925, "longitude": 8.0444, "difficulty": "hard"},
  {"name": "Bellinzona", "latitude": 46.1952, "longitude": 9.0242, "difficulty": "hard"},
  {"name": "Appenzell", "latitude": 47.3305, "longitude": 9.4090, "difficulty": "hard"},
  {"name": "Einsiedeln", "latitude": 47.1286, "longitude": 8.7542, "difficulty": "hard"},
  {"name": "Rapperswil", "latitude": 47.2269, "longitude": 8.8186, "difficulty": "hard"},
  {"name": "Andermatt", "latitude": 46.6342, "longitude": 8.5936, "difficulty": "hard"},
  {"name": "Arosa", "latitude": 46.7833, "longitude": 9.6833, "difficulty": "hard"}
]
